{"yellow_line": {"line": "LN2", "color_code": "FFDF00", "stations": ["SamaypurBadli", "RohiniSector1819", "HaiderpurBadliMor", "Jahangirpuri", "AdarshNagarDelhi", "Railwaypolice", "ModelTown", "GuruTeghBahadurNagar", "Vishwavidyalaya", "VidhanSabhaMetroStation", "CivilLines", "KashmereGate", "ChandniChowk", "ChawriBazar", "DelhiAeroCity", "RajivChowk", "PatelChowkmetrostation", "CentralSecretariat", "UdyogBhawan", "LokKalyanMarg", "JorBagh", "DilliHaatINA", "AIIMSmetrostation", "GreenPark", "HauzKhas", "MalviyaNagar", "Saket", "QutabMinarMetroStation", "Chhattarpur", "SultanpurMetroStation", "GhitorniMetroStation", "ArjanGarh", "GuruDronacharya", "Sikanderpur", "MGRoad", "IffcoChowk", "HudaMetroStationGurugram"], "data": {"SamaypurBadli": {"name": "Samaypur Badli", "city": "Delhi", "code": "SPBI", "location": {"lat": 28.744638, "lng": 77.13829299999999}, "line_color_code": "FFDF00"}, "RohiniSector1819": {"name": "Rohini Sector- 18 19", "city": "Delhi", "code": "RISE", "location": {"lat": 28.73838, "lng": 77.13986}, "line_color_code": "FFDF00"}, "HaiderpurBadliMor": {"name": "Haiderpur Badli Mor", "city": "Delhi", "code": "BIMR", "location": {"lat": 28.7300015, "lng": 77.1491765}, "line_color_code": "FFDF00"}, "Jahangirpuri": {"name": "Jahangirpuri", "city": "Delhi", "code": "JGPI", "location": {"lat": 28.72586, "lng": 77.16279}, "line_color_code": "FFDF00"}, "AdarshNagarDelhi": {"name": "Adarsh Nagar Delhi", "city": "Delhi", "code": "AHNR", "location": {"lat": 28.71441, "lng": 77.1668625}, "line_color_code": "FFDF00"}, "Railwaypolice": {"name": "Railway police", "city": "Delhi", "code": "AZU", "location": {"lat": 28.7066286, "lng": 77.18047899999999}, "line_color_code": "FFDF00"}, "ModelTown": {"name": "Model Town", "city": "Delhi", "code": "MDTW", "location": {"lat": 28.7028569, "lng": 77.1937134}, "line_color_code": "FFDF00"}, "GuruTeghBahadurNagar": {"name": "Guru Tegh Bahadur Nagar", "city": "Delhi", "code": "GTBR", "location": {"lat": 28.698384, "lng": 77.20588}, "line_color_code": "FFDF00"}, "Vishwavidyalaya": {"name": "Vishwavidyalaya", "city": "Delhi", "code": "VW", "location": {"lat": 28.69519, "lng": 77.21450999999999}, "line_color_code": "FFDF00"}, "VidhanSabhaMetroStation": {"name": "Vidhan Sabha Metro Station", "city": "Delhi", "code": "VS", "location": {"lat": 28.687763, "lng": 77.221577}, "line_color_code": "FFDF00"}, "CivilLines": {"name": "Civil Lines", "city": "Delhi", "code": "CL", "location": {"lat": 28.67734, "lng": 77.22480999999999}, "line_color_code": "FFDF00"}, "KashmereGate": {"name": "Kashmere Gate", "city": "Delhi", "code": "KG", "location": {"lat": 28.66747, "lng": 77.22824}, "line_color_code": "FFDF00"}, "ChandniChowk": {"name": "Chandni Chowk", "city": "Delhi", "code": "CHK", "location": {"lat": 28.6588265, "lng": 77.2303565}, "line_color_code": "FFDF00"}, "ChawriBazar": {"name": "Chawri Bazar", "city": "Delhi", "code": "CWBR", "location": {"lat": 28.6488005, "lng": 77.2262994}, "line_color_code": "FFDF00"}, "DelhiAeroCity": {"name": "Delhi Aero City", "city": "Delhi", "code": "NDI", "location": {"lat": 28.54888, "lng": 77.12077}, "line_color_code": "FFDF00"}, "RajivChowk": {"name": "Rajiv Chowk", "city": "Delhi", "code": "RCK", "location": {"lat": 28.632986, "lng": 77.219374}, "line_color_code": "FFDF00"}, "PatelChowkmetrostation": {"name": "Patel Chowk metro station", "city": "Delhi", "code": "PTCK", "location": {"lat": 28.6232809, "lng": 77.214478}, "line_color_code": "FFDF00"}, "CentralSecretariat": {"name": "Central Secretariat", "city": "Delhi", "code": "CTST", "location": {"lat": 28.6151511, "lng": 77.21226349999999}, "line_color_code": "FFDF00"}, "UdyogBhawan": {"name": "Udyog Bhawan", "city": "Delhi", "code": "UDB", "location": {"lat": 28.61071, "lng": 77.21188}, "line_color_code": "FFDF00"}, "LokKalyanMarg": {"name": "Lok Kalyan Marg", "city": "Delhi", "code": "LKM", "location": {"lat": 28.5976575, "lng": 77.21117730000002}, "line_color_code": "FFDF00"}, "JorBagh": {"name": "Jor Bagh", "city": "Delhi", "code": "JB", "location": {"lat": 28.5877575, "lng": 77.215312}, "line_color_code": "FFDF00"}, "DilliHaatINA": {"name": "Dilli Haat INA", "city": "Delhi", "code": "INA", "location": {"lat": 28.5733233, "lng": 77.2075473}, "line_color_code": "FFDF00"}, "AIIMSmetrostation": {"name": "AIIMS metro station", "city": "Delhi", "code": "AIIMS", "location": {"lat": 28.5668365, "lng": 77.2080758}, "line_color_code": "FFDF00"}, "GreenPark": {"name": "Green Park", "city": "Delhi", "code": "GNPK", "location": {"lat": 28.5598217, "lng": 77.20682560000002}, "line_color_code": "FFDF00"}, "HauzKhas": {"name": "Hauz Khas", "city": "Delhi", "code": "HKS", "location": {"lat": 28.5439504, "lng": 77.2062395}, "line_color_code": "FFDF00"}, "MalviyaNagar": {"name": "Malviya Nagar", "city": "Delhi", "code": "MVNR", "location": {"lat": 28.5342332, "lng": 77.2094473}, "line_color_code": "FFDF00"}, "Saket": {"name": "Saket", "city": "Delhi", "code": "SAKT", "location": {"lat": 28.52113, "lng": 77.20218}, "line_color_code": "FFDF00"}, "QutabMinarMetroStation": {"name": "Qutab Minar Metro Station", "city": "Delhi", "code": "QM", "location": {"lat": 28.5129418, "lng": 77.18634879999999}, "line_color_code": "FFDF00"}, "Chhattarpur": {"name": "Chhattarpur", "city": "Delhi", "code": "CHTP", "location": {"lat": 28.5067936, "lng": 77.17502569999999}, "line_color_code": "FFDF00"}, "SultanpurMetroStation": {"name": "Sultanpur Metro Station", "city": "Delhi", "code": "SLTP", "location": {"lat": 28.4991292, "lng": 77.16118999999999}, "line_color_code": "FFDF00"}, "GhitorniMetroStation": {"name": "Ghitorni Metro Station", "city": "Delhi", "code": "GTNI", "location": {"lat": 28.493814, "lng": 77.14917539999999}, "line_color_code": "FFDF00"}, "ArjanGarh": {"name": "Arjan Garh", "city": "Delhi", "code": "AJG", "location": {"lat": 28.48088, "lng": 77.12585}, "line_color_code": "FFDF00"}, "GuruDronacharya": {"name": "Guru Dronacharya", "city": "Delhi", "code": "GE", "location": {"lat": 28.4819493, "lng": 77.10225179999999}, "line_color_code": "FFDF00"}, "Sikanderpur": {"name": "Sikanderpur", "city": "Delhi", "code": "SKRP", "location": {"lat": 28.48131, "lng": 77.09312}, "line_color_code": "FFDF00"}, "MGRoad": {"name": "MG Road", "city": "Delhi", "code": "MGRO", "location": {"lat": 28.47957, "lng": 77.08006}, "line_color_code": "FFDF00"}, "IffcoChowk": {"name": "Iffco Chowk", "city": "Delhi", "code": "IFOC", "location": {"lat": 28.47224, "lng": 77.0724}, "line_color_code": "FFDF00"}, "HudaMetroStationGurugram": {"name": "Huda Metro Station (Gurugram)", "city": "Delhi", "code": "HCC", "location": {"lat": 28.4592, "lng": 77.07248}, "line_color_code": "FFDF00"}}}, "violet_line": {"line": "LN6", "color_code": "553592", "stations": ["KashmereGate", "LalQuila", "JamaMasjidmetrostation", "DelhiGatemetrostation", "ITO", "MandiHousemetrostation", "Janpath", "CentralSecretariat", "KhanMarketmetrostation", "JLNStadium", "JangpuraMetroRailStation", "LajpatNagarmetrostation", "Moolchand", "KailashColonyMetroStation", "NehruPlace", "KalkajiMandir", "Govindpuri", "HarkeshNagarOkhla", "JasolaApollo", "SaritaVihar", "MohanEstate", "Tughlakabad", "BadarpurBorder", "Sarai", "NHPCChowk", "MewalaMaharajpur", "Sector28", "BadkhalMormetrostation", "OldFaridabad", "LakhaniArmaanNeelamChowkAjronda", "BataChowkMetroStation", "EscortsMujesar", "ChandniChowkMetroStation", "RajaNaharSinghBallabhgarhMetrostation"], "data": {"KashmereGate": {"name": "Kashmere Gate", "city": "Delhi", "code": "KG", "location": {"lat": 28.66747, "lng": 77.22824}, "line_color_code": "553592"}, "LalQuila": {"name": "Lal Quila", "city": "Delhi", "code": "LLQA", "location": {"lat": 28.6568551, "lng": 77.2368125}, "line_color_code": "553592"}, "JamaMasjidmetrostation": {"name": "Jama Masjid metro station", "city": "Delhi", "code": "JAMD", "location": {"lat": 28.651065, "lng": 77.2381355}, "line_color_code": "553592"}, "DelhiGatemetrostation": {"name": "Delhi Gate metro station", "city": "Delhi", "code": "DLIG", "location": {"lat": 28.6377338, "lng": 77.2411067}, "line_color_code": "553592"}, "ITO": {"name": "ITO", "city": "Delhi", "code": "ITO", "location": {"lat": 28.62839, "lng": 77.24118}, "line_color_code": "553592"}, "MandiHousemetrostation": {"name": "Mandi House metro station", "city": "Delhi", "code": "MDHS", "location": {"lat": 28.6258654, "lng": 77.23429440000001}, "line_color_code": "553592"}, "Janpath": {"name": "Janpath", "city": "Delhi", "code": "JNPH", "location": {"lat": 28.625061, "lng": 77.219184}, "line_color_code": "553592"}, "CentralSecretariat": {"name": "Central Secretariat", "city": "Delhi", "code": "CTST", "location": {"lat": 28.6151511, "lng": 77.21226349999999}, "line_color_code": "553592"}, "KhanMarketmetrostation": {"name": "Khan Market metro station", "city": "Delhi", "code": "KM", "location": {"lat": 28.602044, "lng": 77.2292076}, "line_color_code": "553592"}, "JLNStadium": {"name": "JLN Stadium", "city": "Delhi", "code": "JLNS", "location": {"lat": 28.589363, "lng": 77.23356199999999}, "line_color_code": "553592"}, "JangpuraMetroRailStation": {"name": "Jangpura Metro Rail Station", "city": "Delhi", "code": "JGPA", "location": {"lat": 28.583698, "lng": 77.238436}, "line_color_code": "553592"}, "LajpatNagarmetrostation": {"name": "Lajpat Nagar metro station", "city": "Delhi", "code": "LJPN", "location": {"lat": 28.5705418, "lng": 77.236409}, "line_color_code": "553592"}, "Moolchand": {"name": "Moolchand", "city": "Delhi", "code": "MLCD", "location": {"lat": 28.564012, "lng": 77.234245}, "line_color_code": "553592"}, "KailashColonyMetroStation": {"name": "Kailash Colony Metro Station", "city": "Delhi", "code": "KHCY", "location": {"lat": 28.5553874, "lng": 77.2419541}, "line_color_code": "553592"}, "NehruPlace": {"name": "Nehru Place", "city": "Delhi", "code": "NP", "location": {"lat": 28.551403, "lng": 77.2517658}, "line_color_code": "553592"}, "KalkajiMandir": {"name": "Kalkaji Mandir", "city": "Delhi", "code": "KJMD", "location": {"lat": 28.54945, "lng": 77.25922}, "line_color_code": "553592"}, "Govindpuri": {"name": "Govindpuri", "city": "Delhi", "code": "GDPI", "location": {"lat": 28.5444, "lng": 77.26435}, "line_color_code": "553592"}, "HarkeshNagarOkhla": {"name": "Harkesh Nagar Okhla", "city": "Delhi", "code": "HNOK", "location": {"lat": 28.54292, "lng": 77.27503999999999}, "line_color_code": "553592"}, "JasolaApollo": {"name": "Jasola Apollo", "city": "Delhi", "code": "JLA", "location": {"lat": 28.53813, "lng": 77.2833}, "line_color_code": "553592"}, "SaritaVihar": {"name": "Sarita Vihar", "city": "Delhi", "code": "STVR", "location": {"lat": 28.52873, "lng": 77.28822}, "line_color_code": "553592"}, "MohanEstate": {"name": "Mohan Estate", "city": "Delhi", "code": "METE", "location": {"lat": 28.5194926, "lng": 77.29449559999999}, "line_color_code": "553592"}, "Tughlakabad": {"name": "Tughlakabad", "city": "Delhi", "code": "TKDS", "location": {"lat": 28.5030317, "lng": 77.2995009}, "line_color_code": "553592"}, "BadarpurBorder": {"name": "Badarpur Border", "city": "Delhi", "code": "BAPB", "location": {"lat": 28.4936925, "lng": 77.3026974}, "line_color_code": "553592"}, "Sarai": {"name": "Sarai", "city": "Delhi", "code": "SRAI", "location": {"lat": 28.47807, "lng": 77.3049}, "line_color_code": "553592"}, "NHPCChowk": {"name": "NHPC Chowk", "city": "Delhi", "code": "NHPC", "location": {"lat": 28.4577014, "lng": 77.30744279999999}, "line_color_code": "553592"}, "MewalaMaharajpur": {"name": "Mewala Maharajpur", "city": "Delhi", "code": "MMJR", "location": {"lat": 28.4485624, "lng": 77.30797969999999}, "line_color_code": "553592"}, "Sector28": {"name": "Sector 28", "city": "Delhi", "code": "STTA", "location": {"lat": 28.43801, "lng": 77.30899}, "line_color_code": "553592"}, "BadkhalMormetrostation": {"name": "Badkhal Mor metro station", "city": "Delhi", "code": "BKMR", "location": {"lat": 28.4228115, "lng": 77.31013490000001}, "line_color_code": "553592"}, "OldFaridabad": {"name": "Old Faridabad", "city": "Delhi", "code": "OFDB", "location": {"lat": 28.4107712, "lng": 77.31150749999999}, "line_color_code": "553592"}, "LakhaniArmaanNeelamChowkAjronda": {"name": "Lakhani Armaan - Neelam Chowk Ajronda", "city": "Delhi", "code": "NCAJ", "location": {"lat": 28.3976669, "lng": 77.3122504}, "line_color_code": "553592"}, "BataChowkMetroStation": {"name": "Bata Chowk Metro Station", "city": "Delhi", "code": "BACH", "location": {"lat": 28.3859614, "lng": 77.3134303}, "line_color_code": "553592"}, "EscortsMujesar": {"name": "Escorts Mujesar", "city": "Delhi", "code": "ECMJ", "location": {"lat": 28.37016, "lng": 77.31493999999999}, "line_color_code": "553592"}, "ChandniChowkMetroStation": {"name": "Chandni Chowk Metro Station", "city": "Delhi", "code": "NCBC", "location": {"lat": 28.3546799, "lng": 77.31608349999999}, "line_color_code": "553592"}, "RajaNaharSinghBallabhgarhMetrostation": {"name": "Raja Nahar Singh (Ballabhgarh) Metro station", "city": "Delhi", "code": "BVHM", "location": {"lat": 28.3397989, "lng": 77.316372}, "line_color_code": "553592"}}}, "red_line": {"line": "LN1", "color_code": "FF4040", "stations": ["ShaheedSthalNewBusAdda", "HindonRiver", "Arthala", "MohanNagar", "ShyamPark", "MajorMohitSharmaRajendraNagar", "RajBagh", "ShaheedNagar", "DilshadGarden", "Jhilmil", "MansarovarParkMetroStation", "Shahdara", "Welcome", "Seelampur", "ShastriPark", "KashmereGate", "TisHazari", "PulBangashmetrostation", "PratapNagar", "ShastriNagarMetroStation", "Inderlok", "KanhaiyaNagar", "B4KeshavPuram", "NetajiSubhashPlace", "KohatEnclave", "Pitampura", "RohiniEastmetrostation", "RohiniWest", "Rithala"], "data": {"ShaheedSthalNewBusAdda": {"name": "Shaheed Sthal (New Bus Adda)", "city": "Delhi", "code": "NBAA", "location": {"lat": 28.670621, "lng": 77.415453}, "line_color_code": "FF4040"}, "HindonRiver": {"name": "Hindon River", "city": "Delhi", "code": "HDNR", "location": {"lat": 28.67341499999999, "lng": 77.40637}, "line_color_code": "FF4040"}, "Arthala": {"name": "Arthala", "city": "Delhi", "code": "ATHA", "location": {"lat": 28.6738477, "lng": 77.3905711}, "line_color_code": "FF4040"}, "MohanNagar": {"name": "Mohan Nagar", "city": "Delhi", "code": "MNGM", "location": {"lat": 28.67848, "lng": 77.383933}, "line_color_code": "FF4040"}, "ShyamPark": {"name": "Shyam Park", "city": "Delhi", "code": "SMPK", "location": {"lat": 28.6782, "lng": 77.37024}, "line_color_code": "FF4040"}, "MajorMohitSharmaRajendraNagar": {"name": "Major Mohit Sharma Rajendra Nagar", "city": "Delhi", "code": "RJNM", "location": {"lat": 28.67762, "lng": 77.35828}, "line_color_code": "FF4040"}, "RajBagh": {"name": "Raj Bagh", "city": "Delhi", "code": "RJBH", "location": {"lat": 28.6770329, "lng": 77.3467459}, "line_color_code": "FF4040"}, "ShaheedNagar": {"name": "Shaheed Nagar", "city": "Delhi", "code": "SHDN", "location": {"lat": 28.676632, "lng": 77.333759}, "line_color_code": "FF4040"}, "DilshadGarden": {"name": "Dilshad Garden", "city": "Delhi", "code": "DSG", "location": {"lat": 28.6828082, "lng": 77.3121354}, "line_color_code": "FF4040"}, "Jhilmil": {"name": "Jhilmil", "city": "Delhi", "code": "JLML", "location": {"lat": 28.67576, "lng": 77.312426}, "line_color_code": "FF4040"}, "MansarovarParkMetroStation": {"name": "Mansarovar Park Metro Station", "city": "Delhi", "code": "MPK", "location": {"lat": 28.675566, "lng": 77.300119}, "line_color_code": "FF4040"}, "Shahdara": {"name": "Shahdara", "city": "Delhi", "code": "SHD", "location": {"lat": 28.67345, "lng": 77.28988}, "line_color_code": "FF4040"}, "Welcome": {"name": "Welcome", "city": "Delhi", "code": "WC", "location": {"lat": 28.6719297, "lng": 77.2776303}, "line_color_code": "FF4040"}, "Seelampur": {"name": "Seelampur", "city": "Delhi", "code": "SLAP", "location": {"lat": 28.6697637, "lng": 77.2668193}, "line_color_code": "FF4040"}, "ShastriPark": {"name": "Shastri Park", "city": "Delhi", "code": "SHPK", "location": {"lat": 28.6683013, "lng": 77.2502654}, "line_color_code": "FF4040"}, "KashmereGate": {"name": "Kashmere Gate", "city": "Delhi", "code": "KG", "location": {"lat": 28.66747, "lng": 77.22824}, "line_color_code": "FF4040"}, "TisHazari": {"name": "Tis Hazari", "city": "Delhi", "code": "TZI", "location": {"lat": 28.6669745, "lng": 77.21663930000001}, "line_color_code": "FF4040"}, "PulBangashmetrostation": {"name": "Pul Bangash metro station", "city": "Delhi", "code": "PBGH", "location": {"lat": 28.666398, "lng": 77.2073716}, "line_color_code": "FF4040"}, "PratapNagar": {"name": "Pratap Nagar", "city": "Delhi", "code": "PRA", "location": {"lat": 28.666615, "lng": 77.19888259999999}, "line_color_code": "FF4040"}, "ShastriNagarMetroStation": {"name": "Shastri Nagar Metro Station", "city": "Delhi", "code": "SHT", "location": {"lat": 28.670081, "lng": 77.18124999999999}, "line_color_code": "FF4040"}, "Inderlok": {"name": "Inderlok", "city": "Delhi", "code": "ILOK", "location": {"lat": 28.673571, "lng": 77.170296}, "line_color_code": "FF4040"}, "KanhaiyaNagar": {"name": "Kanhaiya Nagar", "city": "Delhi", "code": "KN", "location": {"lat": 28.68237, "lng": 77.16481}, "line_color_code": "FF4040"}, "B4KeshavPuram": {"name": "B-4 Keshav Puram", "city": "Delhi", "code": "KP", "location": {"lat": 28.687551, "lng": 77.162475}, "line_color_code": "FF4040"}, "NetajiSubhashPlace": {"name": "Netaji Subhash Place", "city": "Delhi", "code": "NSHP", "location": {"lat": 28.69605, "lng": 77.15259}, "line_color_code": "FF4040"}, "KohatEnclave": {"name": "Kohat Enclave", "city": "Delhi", "code": "KE", "location": {"lat": 28.69799, "lng": 77.14063999999999}, "line_color_code": "FF4040"}, "Pitampura": {"name": "Pitampura", "city": "Delhi", "code": "PTP", "location": {"lat": 28.70311, "lng": 77.13247}, "line_color_code": "FF4040"}, "RohiniEastmetrostation": {"name": "Rohini East metro station", "city": "Delhi", "code": "RHE", "location": {"lat": 28.7076699, "lng": 77.1258745}, "line_color_code": "FF4040"}, "RohiniWest": {"name": "Rohini West", "city": "Delhi", "code": "RHW", "location": {"lat": 28.714869, "lng": 77.115484}, "line_color_code": "FF4040"}, "Rithala": {"name": "Rithala", "city": "Delhi", "code": "RI", "location": {"lat": 28.72077, "lng": 77.10716}, "line_color_code": "FF4040"}}}, "pink_line": {"line": "LN7", "color_code": "FC8EAC", "stations": ["MajlisPark", "Railwaypolice", "ShalimarBagh", "NetajiSubhashPlace", "Shakurpur", "PunjabiBaghWest", "ESIBasaidarapur", "RajouriGarden", "Mayapuri", "NarainaVihar", "DelhiCanttMetroStation", "DurgabaiDeshmukhSouthCampus", "SirMVishweshwaraiahMotiBagh", "BhikajiCamaPlace", "SarojiniNagar", "DilliHaatINA", "SouthExtension", "LajpatNagarmetrostation", "Vinobapuri", "Ashrammetrostation", "SaraiKaleKhanNizamuddin", "MayurVihar1", "MayurViharPkt1", "SanjayLake", "EastVinodNagarMayurVihar2MetroStation", "MandawaliWestVinodNagar", "IPExtension", "AnandViharMetroStation", "Karkarduma", "KarkardumaCourt", "Krishnanagarmetrostation", "EastAzadNagar", "Welcome", "Jaffrabad", "MaujpurBabarpur", "Gokulpuri", "JohriEnclave", "ShivVihar"], "data": {"MajlisPark": {"name": "Majlis Park", "city": "Delhi", "code": "MKPR", "location": {"lat": 28.72416, "lng": 77.18205}, "line_color_code": "FC8EAC"}, "Railwaypolice": {"name": "Railway police", "city": "Delhi", "code": "AZU", "location": {"lat": 28.7066286, "lng": 77.18047899999999}, "line_color_code": "FC8EAC"}, "ShalimarBagh": {"name": "Shalimar Bagh", "city": "Delhi", "code": "SMBG", "location": {"lat": 28.7019188, "lng": 77.1651467}, "line_color_code": "FC8EAC"}, "NetajiSubhashPlace": {"name": "Netaji Subhash Place", "city": "Delhi", "code": "NSHP", "location": {"lat": 28.69605, "lng": 77.15259}, "line_color_code": "FC8EAC"}, "Shakurpur": {"name": "Shakurpur", "city": "Delhi", "code": "SAKP", "location": {"lat": 28.6857084, "lng": 77.1496861}, "line_color_code": "FC8EAC"}, "PunjabiBaghWest": {"name": "Punjabi Bagh West", "city": "Delhi", "code": "PBGW", "location": {"lat": 28.67274, "lng": 77.13918}, "line_color_code": "FC8EAC"}, "ESIBasaidarapur": {"name": "ESI-Basaidarapur", "city": "Delhi", "code": "ESIH", "location": {"lat": 28.6580684, "lng": 77.127462}, "line_color_code": "FC8EAC"}, "RajouriGarden": {"name": "Rajouri Garden", "city": "Delhi", "code": "RG", "location": {"lat": 28.649019, "lng": 77.122705}, "line_color_code": "FC8EAC"}, "Mayapuri": {"name": "Mayapuri", "city": "Delhi", "code": "MYPI", "location": {"lat": 28.6230738, "lng": 77.1207739}, "line_color_code": "FC8EAC"}, "NarainaVihar": {"name": "Naraina Vihar", "city": "Delhi", "code": "NAVR", "location": {"lat": 28.624125, "lng": 77.136488}, "line_color_code": "FC8EAC"}, "DelhiCanttMetroStation": {"name": "Delhi Cantt Metro Station", "city": "Delhi", "code": "DLIC", "location": {"lat": 28.6086915, "lng": 77.1404225}, "line_color_code": "FC8EAC"}, "DurgabaiDeshmukhSouthCampus": {"name": "Durgabai Deshmukh South Campus", "city": "Delhi", "code": "DDSC", "location": {"lat": 28.58938, "lng": 77.16951999999999}, "line_color_code": "FC8EAC"}, "SirMVishweshwaraiahMotiBagh": {"name": "Sir M. Vishweshwaraiah Moti Bagh", "city": "Delhi", "code": "SVMB", "location": {"lat": 28.578504, "lng": 77.175726}, "line_color_code": "FC8EAC"}, "BhikajiCamaPlace": {"name": "Bhikaji Cama Place", "city": "Delhi", "code": "BKCP", "location": {"lat": 28.567924, "lng": 77.1880786}, "line_color_code": "FC8EAC"}, "SarojiniNagar": {"name": "Sarojini Nagar", "city": "Delhi", "code": "SOJI", "location": {"lat": 28.5740324, "lng": 77.19906689999999}, "line_color_code": "FC8EAC"}, "DilliHaatINA": {"name": "Dilli Haat INA", "city": "Delhi", "code": "INA", "location": {"lat": 28.5733233, "lng": 77.2075473}, "line_color_code": "FC8EAC"}, "SouthExtension": {"name": "South Extension", "city": "Delhi", "code": "SOEN", "location": {"lat": 28.568611, "lng": 77.220265}, "line_color_code": "FC8EAC"}, "LajpatNagarmetrostation": {"name": "Lajpat Nagar metro station", "city": "Delhi", "code": "LJPN", "location": {"lat": 28.5705418, "lng": 77.236409}, "line_color_code": "FC8EAC"}, "Vinobapuri": {"name": "Vinobapuri", "city": "Delhi", "code": "VNPR", "location": {"lat": 28.565944, "lng": 77.250502}, "line_color_code": "FC8EAC"}, "Ashrammetrostation": {"name": "Ashram metro station", "city": "Delhi", "code": "AHRM", "location": {"lat": 28.5735755, "lng": 77.2575}, "line_color_code": "FC8EAC"}, "SaraiKaleKhanNizamuddin": {"name": "Sarai Kale Khan - Nizamuddin", "city": "Delhi", "code": "NIZM", "location": {"lat": 28.5880776, "lng": 77.2532422}, "line_color_code": "FC8EAC"}, "MayurVihar1": {"name": "Mayur Vihar-1", "city": "Delhi", "code": "MVP1", "location": {"lat": 28.6042259, "lng": 77.289608}, "line_color_code": "FC8EAC"}, "MayurViharPkt1": {"name": "Mayur Vihar Pkt-1", "city": "Delhi", "code": "MVPO", "location": {"lat": 28.6057944, "lng": 77.2987035}, "line_color_code": "FC8EAC"}, "SanjayLake": {"name": "Sanjay Lake", "city": "Delhi", "code": "TKPR", "location": {"lat": 28.6147599, "lng": 77.304082}, "line_color_code": "FC8EAC"}, "EastVinodNagarMayurVihar2MetroStation": {"name": "East Vinod Nagar Mayur Vihar 2 Metro Station", "city": "Delhi", "code": "VENT", "location": {"lat": 28.6200432, "lng": 77.3052467}, "line_color_code": "FC8EAC"}, "MandawaliWestVinodNagar": {"name": "Mandawali - West Vinod Nagar", "city": "Delhi", "code": "VNNR", "location": {"lat": 28.624877, "lng": 77.304372}, "line_color_code": "FC8EAC"}, "IPExtension": {"name": "IP Extension", "city": "Delhi", "code": "IPE", "location": {"lat": 28.6319356, "lng": 77.31075659999999}, "line_color_code": "FC8EAC"}, "AnandViharMetroStation": {"name": "Anand Vihar Metro Station", "city": "Delhi", "code": "AVIT", "location": {"lat": 28.6469527, "lng": 77.3159156}, "line_color_code": "FC8EAC"}, "Karkarduma": {"name": "Karkarduma", "city": "Delhi", "code": "KKDA", "location": {"lat": 28.64849, "lng": 77.30557999999999}, "line_color_code": "FC8EAC"}, "KarkardumaCourt": {"name": "Karkarduma Court", "city": "Delhi", "code": "KKDC", "location": {"lat": 28.65359, "lng": 77.29558999999999}, "line_color_code": "FC8EAC"}, "Krishnanagarmetrostation": {"name": "Krishna nagar metro station", "city": "Delhi", "code": "KHNA", "location": {"lat": 28.6585312, "lng": 77.2895047}, "line_color_code": "FC8EAC"}, "EastAzadNagar": {"name": "East Azad Nagar", "city": "Delhi", "code": "EANR", "location": {"lat": 28.66479, "lng": 77.28479999999999}, "line_color_code": "FC8EAC"}, "Welcome": {"name": "Welcome", "city": "Delhi", "code": "WC", "location": {"lat": 28.6719297, "lng": 77.2776303}, "line_color_code": "FC8EAC"}, "Jaffrabad": {"name": "Jaffrabad", "city": "Delhi", "code": "JFRB", "location": {"lat": 28.6827404, "lng": 77.2748209}, "line_color_code": "FC8EAC"}, "MaujpurBabarpur": {"name": "Maujpur-Babarpur", "city": "Delhi", "code": "MUPR", "location": {"lat": 28.6921031, "lng": 77.279612}, "line_color_code": "FC8EAC"}, "Gokulpuri": {"name": "Gokulpuri", "city": "Delhi", "code": "GKPR", "location": {"lat": 28.7023798, "lng": 77.28603369999999}, "line_color_code": "FC8EAC"}, "JohriEnclave": {"name": "Johri Enclave", "city": "Delhi", "code": "JIEE", "location": {"lat": 28.71318, "lng": 77.29006}, "line_color_code": "FC8EAC"}, "ShivVihar": {"name": "Shiv Vihar", "city": "Delhi", "code": "SVVR", "location": {"lat": 28.7216122, "lng": 77.2894938}, "line_color_code": "FC8EAC"}}}, "magenta_line": {"line": "LN8", "color_code": "CC338B", "stations": ["JanakpuriWest", "DabriMorJanakpuriSouth", "Dashrathpuri", "Palam", "SadarBazarCantonmentMetroStation", "IndigoTerminal1IGIAirport", "ShankarVihar", "VasantVihar", "Munirka", "RKPuram", "IIT", "HauzKhas", "PanchsheelPark", "ChiragDelhimetrostation", "GreaterKailash", "NehruEnclave", "KalkajiMandir", "OkhlaNSIC", "SukhdevVihar", "JamiaMilliaIslamia", "OkhlaVihar", "JasolaViharShaheenBagh", "KalindiKunj", "OkhlaBirdSanctuary", "BotanicalGardenmetrostation"], "data": {"JanakpuriWest": {"name": "Janakpuri West", "city": "Delhi", "code": "JPW", "location": {"lat": 28.62947, "lng": 77.07777}, "line_color_code": "CC338B"}, "DabriMorJanakpuriSouth": {"name": "Dabri Mor- Janakpuri South", "city": "Delhi", "code": "DBMR", "location": {"lat": 28.615906, "lng": 77.085257}, "line_color_code": "CC338B"}, "Dashrathpuri": {"name": "Dashrathpuri", "city": "Delhi", "code": "DSHP", "location": {"lat": 28.6023411, "lng": 77.0826046}, "line_color_code": "CC338B"}, "Palam": {"name": "Palam", "city": "Delhi", "code": "PALM", "location": {"lat": 28.58907, "lng": 77.08296}, "line_color_code": "CC338B"}, "SadarBazarCantonmentMetroStation": {"name": "Sadar Bazar Cantonment Metro Station", "city": "Delhi", "code": "SABR", "location": {"lat": 28.5770418, "lng": 77.1113903}, "line_color_code": "CC338B"}, "IndigoTerminal1IGIAirport": {"name": "Indigo Terminal 1 IGI Airport", "city": "Delhi", "code": "IGDA", "location": {"lat": 28.5653, "lng": 77.12238099999999}, "line_color_code": "CC338B"}, "ShankarVihar": {"name": "Shankar Vihar", "city": "Delhi", "code": "SKVR", "location": {"lat": 28.5608664, "lng": 77.1403535}, "line_color_code": "CC338B"}, "VasantVihar": {"name": "Vasant Vihar", "city": "Delhi", "code": "VTVR", "location": {"lat": 28.557829, "lng": 77.16099000000001}, "line_color_code": "CC338B"}, "Munirka": {"name": "Munirka", "city": "Delhi", "code": "MIRK", "location": {"lat": 28.5578944, "lng": 77.173968}, "line_color_code": "CC338B"}, "RKPuram": {"name": "R.K. Puram", "city": "Delhi", "code": "RKPM", "location": {"lat": 28.5503325, "lng": 77.1851905}, "line_color_code": "CC338B"}, "IIT": {"name": "IIT", "city": "Delhi", "code": "IIT", "location": {"lat": 28.547199, "lng": 77.193817}, "line_color_code": "CC338B"}, "HauzKhas": {"name": "Hauz Khas", "city": "Delhi", "code": "HKS", "location": {"lat": 28.5439504, "lng": 77.2062395}, "line_color_code": "CC338B"}, "PanchsheelPark": {"name": "Panchsheel Park", "city": "Delhi", "code": "PSPK", "location": {"lat": 28.542338, "lng": 77.220507}, "line_color_code": "CC338B"}, "ChiragDelhimetrostation": {"name": "Chirag Delhi metro station", "city": "Delhi", "code": "CDLI", "location": {"lat": 28.5415545, "lng": 77.231886}, "line_color_code": "CC338B"}, "GreaterKailash": {"name": "Greater Kailash", "city": "Delhi", "code": "GKEI", "location": {"lat": 28.541832, "lng": 77.238247}, "line_color_code": "CC338B"}, "NehruEnclave": {"name": "Nehru Enclave", "city": "Delhi", "code": "NUEE", "location": {"lat": 28.5458514, "lng": 77.251167}, "line_color_code": "CC338B"}, "KalkajiMandir": {"name": "Kalkaji Mandir", "city": "Delhi", "code": "KJMD", "location": {"lat": 28.54945, "lng": 77.25922}, "line_color_code": "CC338B"}, "OkhlaNSIC": {"name": "Okhla NSIC", "city": "Delhi", "code": "OKNS", "location": {"lat": 28.5544259, "lng": 77.2648833}, "line_color_code": "CC338B"}, "SukhdevVihar": {"name": "Sukhdev Vihar", "city": "Delhi", "code": "IWNR", "location": {"lat": 28.5597744, "lng": 77.2751248}, "line_color_code": "CC338B"}, "JamiaMilliaIslamia": {"name": "Jamia Millia Islamia", "city": "Delhi", "code": "JANR", "location": {"lat": 28.56295, "lng": 77.28622}, "line_color_code": "CC338B"}, "OkhlaVihar": {"name": "Okhla Vihar", "city": "Delhi", "code": "OVA", "location": {"lat": 28.561087, "lng": 77.29197429999999}, "line_color_code": "CC338B"}, "JasolaViharShaheenBagh": {"name": "Jasola Vihar Shaheen Bagh", "city": "Delhi", "code": "JLA8", "location": {"lat": 28.5459354, "lng": 77.296551}, "line_color_code": "CC338B"}, "KalindiKunj": {"name": "Kalindi Kunj", "city": "Delhi", "code": "KIKJ", "location": {"lat": 28.542835, "lng": 77.310175}, "line_color_code": "CC338B"}, "OkhlaBirdSanctuary": {"name": "Okhla Bird Sanctuary", "city": "Delhi", "code": "OKBS", "location": {"lat": 28.5528635, "lng": 77.3216503}, "line_color_code": "CC338B"}, "BotanicalGardenmetrostation": {"name": "Botanical Garden metro station", "city": "Delhi", "code": "BCGN", "location": {"lat": 28.5640373, "lng": 77.3342687}, "line_color_code": "CC338B"}}}, "grey_line": {"line": "LN9", "color_code": "838996", "stations": ["Dwarka", "Nangli", "Najafgarhmetrostation", "DhansaBusStand"], "data": {"Dwarka": {"name": "Dwarka", "city": "Delhi", "code": "DW", "location": {"lat": 28.6148727, "lng": 77.0229419}, "line_color_code": "838996"}, "Nangli": {"name": "Nangli", "city": "Delhi", "code": "NNGI", "location": {"lat": 28.617239, "lng": 77.0104}, "line_color_code": "838996"}, "Najafgarhmetrostation": {"name": "Najafgarh metro station", "city": "Delhi", "code": "NFGH", "location": {"lat": 28.6125955, "lng": 76.986314}, "line_color_code": "838996"}, "DhansaBusStand": {"name": "Dhansa Bus Stand", "city": "Delhi", "code": "DNBT", "location": {"lat": 28.6119, "lng": 76.978}, "line_color_code": "838996"}}}, "green_line": {"line": "LN5", "color_code": "20B2AA", "stations": ["KirtiNagar", "SatguruRamSinghMarg", "Inderlok", "AshokParkMain", "PunjabiBagh", "PunjabiBaghWest", "ShivajiPark", "Madipur", "PaschimViharEast", "PaschimViharWest", "Peeragarhi", "UdyogNagar", "SurajmalStadium", "Nangloi", "NangloiRailwayStation", "RajdhaniPark", "Mundka", "MIAMetroStation", "Ghevra", "TikriKalan", "TikriBorder", "PanditShreeRamSharma", "BahadurgarhCity", "BrigadierHoshiarSingh"], "data": {"KirtiNagar": {"name": "Kirti Nagar", "city": "Delhi", "code": "KNR", "location": {"lat": 28.6556764, "lng": 77.1508142}, "line_color_code": "20B2AA"}, "SatguruRamSinghMarg": {"name": "Satguru Ram Singh Marg", "city": "Delhi", "code": "SRSM", "location": {"lat": 28.6620427, "lng": 77.1577283}, "line_color_code": "20B2AA"}, "Inderlok": {"name": "Inderlok", "city": "Delhi", "code": "ILOK", "location": {"lat": 28.673571, "lng": 77.170296}, "line_color_code": "20B2AA"}, "AshokParkMain": {"name": "Ashok Park Main", "city": "Delhi", "code": "APMN", "location": {"lat": 28.6716168, "lng": 77.15522639999999}, "line_color_code": "20B2AA"}, "PunjabiBagh": {"name": "Punjabi Bagh", "city": "Delhi", "code": "PBGA", "location": {"lat": 28.6729291, "lng": 77.1460592}, "line_color_code": "20B2AA"}, "PunjabiBaghWest": {"name": "Punjabi Bagh West", "city": "Delhi", "code": "PBGW", "location": {"lat": 28.67274, "lng": 77.13918}, "line_color_code": "20B2AA"}, "ShivajiPark": {"name": "Shivaji Park", "city": "Delhi", "code": "SHVP", "location": {"lat": 28.6749653, "lng": 77.13044959999999}, "line_color_code": "20B2AA"}, "Madipur": {"name": "Madipur", "city": "Delhi", "code": "MAPR", "location": {"lat": 28.6764174, "lng": 77.1194824}, "line_color_code": "20B2AA"}, "PaschimViharEast": {"name": "Paschim Vihar (East)", "city": "Delhi", "code": "PVE", "location": {"lat": 28.67727, "lng": 77.11241}, "line_color_code": "20B2AA"}, "PaschimViharWest": {"name": "Paschim Vihar (West)", "city": "Delhi", "code": "PVW", "location": {"lat": 28.6786, "lng": 77.10231}, "line_color_code": "20B2AA"}, "Peeragarhi": {"name": "Peeragarhi", "city": "Delhi", "code": "PAGI", "location": {"lat": 28.67965319999999, "lng": 77.09277689999999}, "line_color_code": "20B2AA"}, "UdyogNagar": {"name": "Udyog Nagar", "city": "Delhi", "code": "UNRG", "location": {"lat": 28.681048, "lng": 77.08086399999999}, "line_color_code": "20B2AA"}, "SurajmalStadium": {"name": "Surajmal Stadium", "city": "Delhi", "code": "SMSM", "location": {"lat": 28.6819922, "lng": 77.0739822}, "line_color_code": "20B2AA"}, "Nangloi": {"name": "Nangloi", "city": "Delhi", "code": "NNOI", "location": {"lat": 28.68233, "lng": 77.06481}, "line_color_code": "20B2AA"}, "NangloiRailwayStation": {"name": "Nangloi Railway Station", "city": "Delhi", "code": "NRSN", "location": {"lat": 28.682133, "lng": 77.05622}, "line_color_code": "20B2AA"}, "RajdhaniPark": {"name": "Rajdhani Park", "city": "Delhi", "code": "RDPK", "location": {"lat": 28.6822794, "lng": 77.044007}, "line_color_code": "20B2AA"}, "Mundka": {"name": "Mundka", "city": "Delhi", "code": "MUDK", "location": {"lat": 28.68239, "lng": 77.03034}, "line_color_code": "20B2AA"}, "MIAMetroStation": {"name": "MIA Metro Station", "city": "Delhi", "code": "MIAA", "location": {"lat": 28.6835289, "lng": 77.01685049999999}, "line_color_code": "20B2AA"}, "Ghevra": {"name": "Ghevra", "city": "Delhi", "code": "GHEM", "location": {"lat": 28.691376, "lng": 76.9975867}, "line_color_code": "20B2AA"}, "TikriKalan": {"name": "Tikri Kalan", "city": "Delhi", "code": "TKLM", "location": {"lat": 28.68688, "lng": 76.97726999999999}, "line_color_code": "20B2AA"}, "TikriBorder": {"name": "Tikri Border", "city": "Delhi", "code": "TKBR", "location": {"lat": 28.6880203, "lng": 76.9640989}, "line_color_code": "20B2AA"}, "PanditShreeRamSharma": {"name": "Pandit Shree Ram Sharma", "city": "Delhi", "code": "MIEE", "location": {"lat": 28.689242, "lng": 76.95114699999999}, "line_color_code": "20B2AA"}, "BahadurgarhCity": {"name": "Bahadurgarh City", "city": "Delhi", "code": "BUSS", "location": {"lat": 28.69074, "lng": 76.93538}, "line_color_code": "20B2AA"}, "BrigadierHoshiarSingh": {"name": "Brigadier Hoshiar Singh", "city": "Delhi", "code": "CIPK", "location": {"lat": 28.69741, "lng": 76.91927}, "line_color_code": "20B2AA"}}}, "blue_line": {"line": "LN3", "color_code": "4169E1", "stations": ["DwarkaSector21", "DwarkaSec08", "DwarkaSector9", "DwarkaSector10", "DwarkaSector11metrostation", "DwarkaSec12", "DwarkaSector13", "DwarkaSector14metrostation", "Dwarka", "DwarkaMorMetroStation", "Nawadametrostation", "UttamNagarWest", "UttamNagarEast", "JanakpuriWest", "JanakPuriEast", "TilakNagar", "SubhashNagarMetroStation", "TagoreGarden", "RajouriGarden", "RameshNagar", "MotiNagarmetrostation", "KirtiNagar", "Shadipur", "PatelNagar", "RajendraPlace", "KarolBagh", "Jhandewalan", "RKAshramMarg", "RajivChowk", "BarakhambaRoad", "MandiHousemetrostation", "SupremeCourt", "Indraprastha", "YamunaBank", "Akshardham", "MayurVihar1", "MayurViharExtentionMetroStation", "NewAshokNagar", "NoidaSector15MetroStation", "Sector16MetroStation", "Noida", "BotanicalGardenmetrostation", "GolfCourseMetroGateno1", "WaveCityCenterNoida", "Sector34Noida", "Sector52Noida", "Sector61Noida", "NoidaSector59MetroStation", "Sector62Noida", "NoidaElectronicCity"], "data": {"DwarkaSector21": {"name": "Dwarka Sector 21", "city": "Delhi", "code": "DSTO", "location": {"lat": 28.5522057, "lng": 77.0583048}, "line_color_code": "4169E1"}, "DwarkaSec08": {"name": "Dwarka Sec-08", "city": "Delhi", "code": "DSET", "location": {"lat": 28.5658774, "lng": 77.0670303}, "line_color_code": "4169E1"}, "DwarkaSector9": {"name": "Dwarka Sector 9", "city": "Delhi", "code": "DSN", "location": {"lat": 28.57428, "lng": 77.06528}, "line_color_code": "4169E1"}, "DwarkaSector10": {"name": "Dwarka Sector- 10", "city": "Delhi", "code": "DST", "location": {"lat": 28.5811243, "lng": 77.0575085}, "line_color_code": "4169E1"}, "DwarkaSector11metrostation": {"name": "Dwarka Sector 11 metro station", "city": "Delhi", "code": "DSE", "location": {"lat": 28.5863613, "lng": 77.0497386}, "line_color_code": "4169E1"}, "DwarkaSec12": {"name": "Dwarka Sec 12", "city": "Delhi", "code": "DSW", "location": {"lat": 28.59231, "lng": 77.04063}, "line_color_code": "4169E1"}, "DwarkaSector13": {"name": "Dwarka Sector 13", "city": "Delhi", "code": "DSTN", "location": {"lat": 28.5972, "lng": 77.03332999999999}, "line_color_code": "4169E1"}, "DwarkaSector14metrostation": {"name": "Dwarka Sector 14 metro station", "city": "Delhi", "code": "DSFN", "location": {"lat": 28.6022415, "lng": 77.02591249999999}, "line_color_code": "4169E1"}, "Dwarka": {"name": "Dwarka", "city": "Delhi", "code": "DW", "location": {"lat": 28.6148727, "lng": 77.0229419}, "line_color_code": "4169E1"}, "DwarkaMorMetroStation": {"name": "Dwarka Mor Metro Station", "city": "Delhi", "code": "DM", "location": {"lat": 28.6192938, "lng": 77.0333266}, "line_color_code": "4169E1"}, "Nawadametrostation": {"name": "Nawada metro station", "city": "Delhi", "code": "NWD", "location": {"lat": 28.620156, "lng": 77.0450226}, "line_color_code": "4169E1"}, "UttamNagarWest": {"name": "Uttam Nagar West", "city": "Delhi", "code": "UNW", "location": {"lat": 28.6217542, "lng": 77.0558111}, "line_color_code": "4169E1"}, "UttamNagarEast": {"name": "Uttam Nagar East", "city": "Delhi", "code": "UNE", "location": {"lat": 28.6248053, "lng": 77.0653064}, "line_color_code": "4169E1"}, "JanakpuriWest": {"name": "Janakpuri West", "city": "Delhi", "code": "JPW", "location": {"lat": 28.62947, "lng": 77.07777}, "line_color_code": "4169E1"}, "JanakPuriEast": {"name": "Janak Puri East", "city": "Delhi", "code": "JPE", "location": {"lat": 28.63306, "lng": 77.08672}, "line_color_code": "4169E1"}, "TilakNagar": {"name": "Tilak Nagar", "city": "Delhi", "code": "TN", "location": {"lat": 28.636568, "lng": 77.09648}, "line_color_code": "4169E1"}, "SubhashNagarMetroStation": {"name": "Subhash Nagar Metro Station", "city": "Delhi", "code": "SN", "location": {"lat": 28.64039, "lng": 77.10495}, "line_color_code": "4169E1"}, "TagoreGarden": {"name": "Tagore Garden", "city": "Delhi", "code": "TG", "location": {"lat": 28.643754, "lng": 77.1128805}, "line_color_code": "4169E1"}, "RajouriGarden": {"name": "Rajouri Garden", "city": "Delhi", "code": "RG", "location": {"lat": 28.649019, "lng": 77.122705}, "line_color_code": "4169E1"}, "RameshNagar": {"name": "Ramesh Nagar", "city": "Delhi", "code": "RN", "location": {"lat": 28.65274999999999, "lng": 77.13163999999999}, "line_color_code": "4169E1"}, "MotiNagarmetrostation": {"name": "Moti Nagar metro station", "city": "Delhi", "code": "MN", "location": {"lat": 28.6578704, "lng": 77.1426742}, "line_color_code": "4169E1"}, "KirtiNagar": {"name": "Kirti Nagar", "city": "Delhi", "code": "KNR", "location": {"lat": 28.6556764, "lng": 77.1508142}, "line_color_code": "4169E1"}, "Shadipur": {"name": "Shadipur", "city": "Delhi", "code": "SP", "location": {"lat": 28.651027, "lng": 77.1562196}, "line_color_code": "4169E1"}, "PatelNagar": {"name": "Patel Nagar", "city": "Delhi", "code": "PN", "location": {"lat": 28.6450319, "lng": 77.169271}, "line_color_code": "4169E1"}, "RajendraPlace": {"name": "Rajendra Place", "city": "Delhi", "code": "RP", "location": {"lat": 28.64253, "lng": 77.17824}, "line_color_code": "4169E1"}, "KarolBagh": {"name": "Karol Bagh", "city": "Delhi", "code": "KB", "location": {"lat": 28.6439851, "lng": 77.1884965}, "line_color_code": "4169E1"}, "Jhandewalan": {"name": "Jhandewalan", "city": "Delhi", "code": "JW", "location": {"lat": 28.64429, "lng": 77.19991999999999}, "line_color_code": "4169E1"}, "RKAshramMarg": {"name": "RK Ashram Marg", "city": "Delhi", "code": "RKAM", "location": {"lat": 28.63924, "lng": 77.20855999999999}, "line_color_code": "4169E1"}, "RajivChowk": {"name": "Rajiv Chowk", "city": "Delhi", "code": "RCK", "location": {"lat": 28.632986, "lng": 77.219374}, "line_color_code": "4169E1"}, "BarakhambaRoad": {"name": "Barakhamba Road", "city": "Delhi", "code": "BRKR", "location": {"lat": 28.62994, "lng": 77.22449999999999}, "line_color_code": "4169E1"}, "MandiHousemetrostation": {"name": "Mandi House metro station", "city": "Delhi", "code": "MDHS", "location": {"lat": 28.6258654, "lng": 77.23429440000001}, "line_color_code": "4169E1"}, "SupremeCourt": {"name": "Supreme Court", "city": "Delhi", "code": "PTMD", "location": {"lat": 28.6231754, "lng": 77.24292849999999}, "line_color_code": "4169E1"}, "Indraprastha": {"name": "Indraprastha", "city": "Delhi", "code": "IDPT", "location": {"lat": 28.62055, "lng": 77.24995}, "line_color_code": "4169E1"}, "YamunaBank": {"name": "Yamuna Bank", "city": "Delhi", "code": "YB", "location": {"lat": 28.6231664, "lng": 77.26800000000001}, "line_color_code": "4169E1"}, "Akshardham": {"name": "Akshardham", "city": "Delhi", "code": "ASDM", "location": {"lat": 28.6179626, "lng": 77.2793762}, "line_color_code": "4169E1"}, "MayurVihar1": {"name": "Mayur Vihar-1", "city": "Delhi", "code": "MVP1", "location": {"lat": 28.6042259, "lng": 77.289608}, "line_color_code": "4169E1"}, "MayurViharExtentionMetroStation": {"name": "Mayur Vihar Extention Metro Station", "city": "Delhi", "code": "MVE", "location": {"lat": 28.5928265, "lng": 77.2947027}, "line_color_code": "4169E1"}, "NewAshokNagar": {"name": "New Ashok Nagar", "city": "Delhi", "code": "NAGR", "location": {"lat": 28.58916, "lng": 77.30214}, "line_color_code": "4169E1"}, "NoidaSector15MetroStation": {"name": "Noida Sector- 15 Metro Station", "city": "Delhi", "code": "NSFT", "location": {"lat": 28.58509, "lng": 77.31159}, "line_color_code": "4169E1"}, "Sector16MetroStation": {"name": "Sector 16 Metro Station", "city": "Delhi", "code": "NSST", "location": {"lat": 28.5785782, "lng": 77.3172683}, "line_color_code": "4169E1"}, "Noida": {"name": "Noida", "city": "Delhi", "code": "NSET", "location": {"lat": 28.570751, "lng": 77.326188}, "line_color_code": "4169E1"}, "BotanicalGardenmetrostation": {"name": "Botanical Garden metro station", "city": "Delhi", "code": "BCGN", "location": {"lat": 28.5640373, "lng": 77.3342687}, "line_color_code": "4169E1"}, "GolfCourseMetroGateno1": {"name": "Golf Course Metro Gate no. 1", "city": "Delhi", "code": "GEC", "location": {"lat": 28.5671765, "lng": 77.3459827}, "line_color_code": "4169E1"}, "WaveCityCenterNoida": {"name": "Wave City Center Noida", "city": "Delhi", "code": "NCC", "location": {"lat": 28.57467, "lng": 77.35605}, "line_color_code": "4169E1"}, "Sector34Noida": {"name": "Sector 34 Noida", "city": "Delhi", "code": "STFN", "location": {"lat": 28.580117, "lng": 77.36348699999999}, "line_color_code": "4169E1"}, "Sector52Noida": {"name": "Sector 52 Noida", "city": "Delhi", "code": "SFTN", "location": {"lat": 28.5867, "lng": 77.372839}, "line_color_code": "4169E1"}, "Sector61Noida": {"name": "Sector 61 Noida", "city": "Delhi", "code": "SSON", "location": {"lat": 28.597631, "lng": 77.372299}, "line_color_code": "4169E1"}, "NoidaSector59MetroStation": {"name": "Noida Sector 59 Metro Station", "city": "Delhi", "code": "SFNN", "location": {"lat": 28.6064812, "lng": 77.37272039999999}, "line_color_code": "4169E1"}, "Sector62Noida": {"name": "Sector 62 Noida", "city": "Delhi", "code": "SSTN", "location": {"lat": 28.616995, "lng": 77.37361}, "line_color_code": "4169E1"}, "NoidaElectronicCity": {"name": "Noida Electronic City", "city": "Delhi", "code": "NECC", "location": {"lat": 28.627941, "lng": 77.37493}, "line_color_code": "4169E1"}}}, "blue_line_branch": {"line": "LN4", "color_code": "4169E1", "stations": ["YamunaBank", "LaxmiNagarMetroStation", "NirmanVihar", "PreetViharMetroStation", "Karkarduma", "AnandViharMetroStation", "Kaushambi", "VaishaliMetroStation"], "data": {"YamunaBank": {"name": "Yamuna Bank", "city": "Delhi", "code": "YB", "location": {"lat": 28.6231664, "lng": 77.26800000000001}, "line_color_code": "4169E1"}, "LaxmiNagarMetroStation": {"name": "Laxmi Nagar Metro Station", "city": "Delhi", "code": "LN", "location": {"lat": 28.6305146, "lng": 77.2773139}, "line_color_code": "4169E1"}, "NirmanVihar": {"name": "Nirman Vihar", "city": "Delhi", "code": "NV", "location": {"lat": 28.63663, "lng": 77.28683}, "line_color_code": "4169E1"}, "PreetViharMetroStation": {"name": "Preet Vihar Metro Station", "city": "Delhi", "code": "PTVR", "location": {"lat": 28.6418643, "lng": 77.29563089999999}, "line_color_code": "4169E1"}, "Karkarduma": {"name": "Karkarduma", "city": "Delhi", "code": "KKDA", "location": {"lat": 28.64849, "lng": 77.30557999999999}, "line_color_code": "4169E1"}, "AnandViharMetroStation": {"name": "Anand Vihar Metro Station", "city": "Delhi", "code": "AVIT", "location": {"lat": 28.6469527, "lng": 77.3159156}, "line_color_code": "4169E1"}, "Kaushambi": {"name": "Kaushambi", "city": "Delhi", "code": "KSHI", "location": {"lat": 28.6424143, "lng": 77.3187435}, "line_color_code": "4169E1"}, "VaishaliMetroStation": {"name": "Vaishali Metro Station", "city": "Delhi", "code": "VASI", "location": {"lat": 28.64984, "lng": 77.33968}, "line_color_code": "4169E1"}}}, "airport_express": {"line": "LN10", "color_code": "FF8C00", "stations": ["DelhiAeroCity", "ShivajiStadium", "DhaulaKuanmetrostation", "DelhiAeroCity", "Terminal3", "DwarkaSector21"], "data": {"DelhiAeroCity": {"name": "Delhi Aero City", "city": "Delhi", "code": "DACY", "location": {"lat": 28.54888, "lng": 77.12077}, "line_color_code": "FF8C00"}, "ShivajiStadium": {"name": "Shivaji Stadium", "city": "Delhi", "code": "SJSU", "location": {"lat": 28.6287699, "lng": 77.21141209999999}, "line_color_code": "FF8C00"}, "DhaulaKuanmetrostation": {"name": "Dhaula Kuan metro station", "city": "Delhi", "code": "DKV", "location": {"lat": 28.5924241, "lng": 77.1624241}, "line_color_code": "FF8C00"}, "Terminal3": {"name": "Terminal 3", "city": "Delhi", "code": "APOT", "location": {"lat": 28.5550838, "lng": 77.0844015}, "line_color_code": "FF8C00"}, "DwarkaSector21": {"name": "Dwarka Sector 21", "city": "Delhi", "code": "DSTO", "location": {"lat": 28.5522057, "lng": 77.0583048}, "line_color_code": "FF8C00"}}}, "rapid_metro": {"line": "LN11", "color_code": "4169E1", "stations": ["Sector5556", "Sector54Chowk", "Sector5354", "Sector4243", "MayurVihar1", "Sikanderpur", "Phase2MetroStation", "BelvedereTowers", "CyberCity", "MoulsariAvenue", "Phase3"], "data": {"Sector5556": {"name": "Sector 55-56", "city": "Delhi", "code": "S55", "location": {"lat": 28.42341, "lng": 77.1052}, "line_color_code": "4169E1"}, "Sector54Chowk": {"name": "Sector 54 Chowk", "city": "Delhi", "code": "AIT", "location": {"lat": 28.432883, "lng": 77.1049802}, "line_color_code": "4169E1"}, "Sector5354": {"name": "Sector 53-54", "city": "Delhi", "code": "S53", "location": {"lat": 28.4464177, "lng": 77.1004521}, "line_color_code": "4169E1"}, "Sector4243": {"name": "Sector 42-43", "city": "Delhi", "code": "SUL", "location": {"lat": 28.45743, "lng": 77.09694}, "line_color_code": "4169E1"}, "MayurVihar1": {"name": "Mayur Vihar-1", "city": "Delhi", "code": "PH1", "location": {"lat": 28.6042259, "lng": 77.289608}, "line_color_code": "4169E1"}, "Sikanderpur": {"name": "Sikanderpur", "city": "Delhi", "code": "SKRP", "location": {"lat": 28.48131, "lng": 77.09312}, "line_color_code": "4169E1"}, "Phase2MetroStation": {"name": "Phase 2 Metro Station", "city": "Delhi", "code": "DL2", "location": {"lat": 28.48761, "lng": 77.09286999999999}, "line_color_code": "4169E1"}, "BelvedereTowers": {"name": "Belvedere Towers", "city": "Delhi", "code": "BEL", "location": {"lat": 28.491657, "lng": 77.0882554}, "line_color_code": "4169E1"}, "CyberCity": {"name": "Cyber City", "city": "Delhi", "code": "GAT", "location": {"lat": 28.49797, "lng": 77.08918}, "line_color_code": "4169E1"}, "MoulsariAvenue": {"name": "Moulsari Avenue", "city": "Delhi", "code": "MAL", "location": {"lat": 28.500758, "lng": 77.0945121}, "line_color_code": "4169E1"}, "Phase3": {"name": "Phase 3", "city": "Delhi", "code": "DL3", "location": {"lat": 28.49368, "lng": 77.09342}, "line_color_code": "4169E1"}}}}